{
    "type": "RT",
    "points": [
        {
            "type": "Next",
            "name": "006SPCHYNOV",
            "altitude": 534.0,
            "lat": 49.41166666666697,
            "lng": 14.832216666666575,
            "radius": 7500
        },
        {
            "type": "Symmetric",
            "name": "440PRESTICE",
            "altitude": 380.0,
            "lat": 49.575833333333215,
            "lng": 13.322216666666826,
            "radius": 500
        },
        {
            "type": "Symmetric",
            "name": "496SCHONSEE",
            "altitude": 663.0,
            "lat": 49.50833333333357,
            "lng": 12.550000000000095,
            "radius": 500
        },
        {
            "type": "Symmetric",
            "name": "131FLOSSENBUERG",
            "altitude": 602.0,
            "lat": 49.73278333333349,
            "lng": 12.33861666666661,
            "radius": 500
        },
        {
            "type": "Cylinder",
            "name": "001SPTABOR",
            "altitude": 428.0,
            "lat": 49.39416666666691,
            "lng": 14.702783333333127,
            "radius": 5000
        }
    ]
}