{
    "type": "RT",
    "points": [
        {
            "type": "Next",
            "name": "006SPCHYNOV",
            "altitude": 534.0,
            "lat": 49.41166666666697,
            "lng": 14.832216666666575,
            "radius": 7500
        },
        {
            "type": "Symmetric",
            "name": "479ROZVADOV",
            "altitude": 700.0,
            "lat": 49.67195000000015,
            "lng": 12.556666666666974,
            "radius": 500
        },
        {
            "type": "Symmetric",
            "name": "496SCHONSEE",
            "altitude": 663.0,
            "lat": 49.50833333333357,
            "lng": 12.550000000000095,
            "radius": 500
        },
        {
            "type": "Symmetric",
            "name": "688MALONTY",
            "altitude": 688.0,
            "lat": 48.68576666666679,
            "lng": 14.57916666666667,
            "radius": 500
        },
        {
            "type": "Symmetric",
            "name": "646ZIROVNICE",
            "altitude": 565.0,
            "lat": 49.25388333333354,
            "lng": 15.193333333333229,
            "radius": 500
        },
        {
            "type": "Cylinder",
            "name": "001SPTABOR",
            "altitude": 428.0,
            "lat": 49.39416666666691,
            "lng": 14.702783333333127,
            "radius": 5000
        }
    ]
}