{
    "type": "AAT",
    "points": [
        {
            "type": "Next",
            "name": "002SPZELEC",
            "altitude": 477.0,
            "lat": 49.316116666666424,
            "lng": 14.64416666666688,
            "radius": 7500
        },
        {
            "type": "AAT Sector",
            "name": "448PROTIVIN",
            "altitude": 403.0,
            "lat": 49.20083333333314,
            "lng": 14.213616666666399,
            "radius": 15000
        },
        {
            "type": "AAT Sector",
            "name": "545SVIHOV",
            "altitude": 450.0,
            "lat": 49.473616666666935,
            "lng": 13.290833333333351,
            "radius": 30000
        },
        {
            "type": "AAT Sector",
            "name": "657KRASNAHORA",
            "altitude": 579.0,
            "lat": 49.57236666666668,
            "lng": 14.293300000000258,
            "radius": 15000
        },
        {
            "type": "Cylinder",
            "name": "001SPTABOR",
            "altitude": 428.0,
            "lat": 49.39416666666691,
            "lng": 14.702783333333127,
            "radius": 5000
        }
    ]
}