{
    "type": "RT",
    "points": [
        {
            "type": "Next",
            "name": "006SPCHYNOV",
            "altitude": 534.0,
            "lat": 49.41166666666697,
            "lng": 14.832216666666575,
            "radius": 7500
        },
        {
            "type": "Symmetric",
            "name": "602VOTICE",
            "altitude": 500.0,
            "lat": 49.63778333333318,
            "lng": 14.651116666666674,
            "radius": 500
        },
        {
            "type": "Symmetric",
            "name": "337MELECHOV",
            "altitude": 721.0,
            "lat": 49.638616666666906,
            "lng": 15.318333333333062,
            "radius": 500
        },
        {
            "type": "Symmetric",
            "name": "633ZADNIZHOR",
            "altitude": 656.0,
            "lat": 49.451383333333034,
            "lng": 15.874166666666865,
            "radius": 500
        },
        {
            "type": "Symmetric",
            "name": "678CERINEK",
            "altitude": 740.0,
            "lat": 49.37406666666638,
            "lng": 15.436899999999849,
            "radius": 500
        },
        {
            "type": "Symmetric",
            "name": "096DACICE",
            "altitude": 577.0,
            "lat": 49.07916666666646,
            "lng": 15.433616666666925,
            "radius": 500
        },
        {
            "type": "Cylinder",
            "name": "001SPTABOR",
            "altitude": 428.0,
            "lat": 49.39416666666691,
            "lng": 14.702783333333127,
            "radius": 5000
        }
    ]
}