{
    "type": "AAT",
    "points": [
        {
            "type": "Next",
            "name": "206CHOUSTNIK",
            "altitude": 538.0,
            "lat": 49.32583333333355,
            "lng": 14.840283333333574,
            "radius": 7500
        },
        {
            "type": "AAT Sector",
            "name": "519STARESEDLO",
            "altitude": 350.0,
            "lat": 49.504450000000176,
            "lng": 14.183616666666873,
            "radius": 15000
        },
        {
            "type": "AAT Sector",
            "name": "377NMNAMORAVE",
            "altitude": 594.0,
            "lat": 49.568333333333186,
            "lng": 16.081949999999882,
            "radius": 30000
        },
        {
            "type": "AAT Sector",
            "name": "231JHRADEC",
            "altitude": 513.0,
            "lat": 49.15028333333331,
            "lng": 14.974999999999953,
            "radius": 25000
        },
        {
            "type": "Cylinder",
            "name": "001SPTABOR",
            "altitude": 428.0,
            "lat": 49.39416666666691,
            "lng": 14.702783333333127,
            "radius": 5000
        }
    ]
}