{
    "type": "AAT",
    "points": [
        {
            "type": "Next",
            "name": "011SPBOROTIN",
            "altitude": 516.0,
            "lat": 49.504450000000176,
            "lng": 14.614166666666783,
            "radius": 7500
        },
        {
            "type": "AAT Sector",
            "name": "658SOUDNY",
            "altitude": 473.0,
            "lat": 49.577949999999845,
            "lng": 14.1390666666665,
            "radius": 25000
        },
        {
            "type": "AAT Sector",
            "name": "251KAUTZEN",
            "altitude": 525.0,
            "lat": 48.93138333333364,
            "lng": 15.240549999999898,
            "radius": 25000
        },
        {
            "type": "AAT Sector",
            "name": "642ZELIV",
            "altitude": 406.0,
            "lat": 49.522499999999894,
            "lng": 15.218616666666797,
            "radius": 25000
        },
        {
            "type": "AAT Sector",
            "name": "487SEDLCANY",
            "altitude": 400.0,
            "lat": 49.65361666666637,
            "lng": 14.426666666666748,
            "radius": 10000
        },
        {
            "type": "Cylinder",
            "name": "001SPTABOR",
            "altitude": 428.0,
            "lat": 49.39416666666691,
            "lng": 14.702783333333127,
            "radius": 5000
        }
    ]
}