{
    "type": "AAT",
    "points": [
        {
            "type": "Next",
            "name": "006SPCHYNOV",
            "altitude": 534.0,
            "lat": 49.41166666666697,
            "lng": 14.832216666666575,
            "radius": 7500
        },
        {
            "type": "AAT Sector",
            "name": "676SEDLICE",
            "altitude": 510.0,
            "lat": 49.37590000000011,
            "lng": 13.941533333333517,
            "radius": 40000
        },
        {
            "type": "AAT Sector",
            "name": "710WETZELSBERG",
            "altitude": 576.0,
            "lat": 48.916216666666735,
            "lng": 15.42679999999993,
            "radius": 30000
        },
        {
            "type": "AAT Sector",
            "name": "608VYSKYTNA",
            "altitude": 650.0,
            "lat": 49.427783333333075,
            "lng": 15.364166666666929,
            "radius": 25000
        },
        {
            "type": "Cylinder",
            "name": "001SPTABOR",
            "altitude": 428.0,
            "lat": 49.39416666666691,
            "lng": 14.702783333333127,
            "radius": 5000
        }
    ]
}