{
    "type": "RT",
    "points": [
        {
            "type": "Next",
            "name": "009SPCHOTOVINY",
            "altitude": 533.0,
            "lat": 49.47749999999974,
            "lng": 14.676116666666756,
            "radius": 7500
        },
        {
            "type": "Symmetric",
            "name": "186HORNICEREKEV",
            "altitude": 586.0,
            "lat": 49.31111666666641,
            "lng": 15.324166666666796,
            "radius": 500
        },
        {
            "type": "Symmetric",
            "name": "429POLNA",
            "altitude": 490.0,
            "lat": 49.486666666666636,
            "lng": 15.703333333333168,
            "radius": 500
        },
        {
            "type": "Symmetric",
            "name": "659CEPEL",
            "altitude": 510.0,
            "lat": 49.65566666666661,
            "lng": 14.20468333333334,
            "radius": 500
        },
        {
            "type": "Cylinder",
            "name": "001SPTABOR",
            "altitude": 428.0,
            "lat": 49.39416666666691,
            "lng": 14.702783333333127,
            "radius": 5000
        }
    ]
}