{
    "type": "RT",
    "points": [
        {
            "type": "Next",
            "name": "011SPBOROTIN",
            "altitude": 516.0,
            "lat": 49.504450000000176,
            "lng": 14.614166666666783,
            "radius": 7500
        },
        {
            "type": "Symmetric",
            "name": "565TREMSIN",
            "altitude": 827.0,
            "lat": 49.56666666666689,
            "lng": 13.76750000000004,
            "radius": 500
        },
        {
            "type": "Symmetric",
            "name": "346MIROSOV",
            "altitude": 544.0,
            "lat": 49.67361666666644,
            "lng": 13.636666666666471,
            "radius": 500
        },
        {
            "type": "Symmetric",
            "name": "679SLAPANOV",
            "altitude": 445.0,
            "lat": 49.54081666666635,
            "lng": 15.654833333333585,
            "radius": 500
        },
        {
            "type": "Symmetric",
            "name": "538SUCHDOL",
            "altitude": 350.0,
            "lat": 48.902500000000174,
            "lng": 14.882216666666737,
            "radius": 500
        },
        {
            "type": "Symmetric",
            "name": "680HOLUBI",
            "altitude": 619.0,
            "lat": 48.99286666666652,
            "lng": 15.472700000000193,
            "radius": 500
        },
        {
            "type": "Cylinder",
            "name": "001SPTABOR",
            "altitude": 428.0,
            "lat": 49.39416666666691,
            "lng": 14.702783333333127,
            "radius": 5000
        }
    ]
}